{
  "version": "1.0",
  "last_updated": "2025-11-25T12:00:00Z",
  "hydrants": [
    {
      "id": "geraetehaus_marker",
      "type": "h80",
      "name": "Gerätehaus FFW Kappel",
      "description": "Feuerwehrgerätehaus Kappel",
      "latitude": 50.000153,
      "longitude": 7.356538,
      "photo": "IMAG0502.jpg",
      "created_at": "2025-11-25T12:00:00Z",
      "updated_at": "2025-11-25T12:00:00Z",
      "created_by": "migration",
      "updated_by": "migration"
    },
    {
      "id": "h100_baste",
      "type": "h100",
      "name": "Baste",
      "description": "Fast mittig auf der Fahrbahn",
      "latitude": 50.000962,
      "longitude": 7.35689,
      "photo": "h100_keime_baste.jpg",
      "created_at": "2025-11-25T12:00:00Z",
      "updated_at": "2025-11-25T12:00:00Z",
      "created_by": "migration",
      "updated_by": "migration"
    },
    {
      "id": "h100_bauche",
      "type": "h100",
      "name": "Bauche",
      "description": "In der Nähe der Hausecke",
      "latitude": 50.001591,
      "longitude": 7.360783,
      "photo": "h100_bauche.jpg",
      "created_at": "2025-11-25T12:00:00Z",
      "updated_at": "2025-11-25T12:00:00Z",
      "created_by": "migration",
      "updated_by": "migration"
    },
    {
      "id": "h100_becker",
      "type": "h100",
      "name": "Becker",
      "description": "Im Bürgersteig. Etwas unterhalb Anwesen H.Becker",
      "latitude": 50.0015,
      "longitude": 7.356244,
      "photo": "h100_becker.jpg",
      "created_at": "2025-11-25T12:00:00Z",
      "updated_at": "2025-11-25T12:00:00Z",
      "created_by": "migration",
      "updated_by": "migration"
    },
    {
      "id": "h100_braun",
      "type": "h100",
      "name": "Braun",
      "description": "Rechts vom Treppenaufgang",
      "latitude": 50.001141,
      "longitude": 7.355547,
      "photo": "h100_braun.jpg",
      "created_at": "2025-11-25T12:00:00Z",
      "updated_at": "2025-11-25T12:00:00Z",
      "created_by": "migration",
      "updated_by": "migration"
    },
    {
      "id": "h100_brieger",
      "type": "h100",
      "name": "Brieger",
      "description": "Oberhalb des Anwesen Brieger",
      "latitude": 49.999399,
      "longitude": 7.362787,
      "photo": "h100_brieger.jpg",
      "created_at": "2025-11-25T12:00:00Z",
      "updated_at": "2025-11-25T12:00:00Z",
      "created_by": "migration",
      "updated_by": "migration"
    },
    {
      "id": "h100_brummi",
      "type": "h100",
      "name": "Brummi",
      "description": "Zwischen altem Gemeindehaus und ehemals BrummiGrill. Vor der Hecke",
      "latitude": 50.000185,
      "longitude": 7.362224,
      "photo": "h100_brummi.jpg",
      "created_at": "2025-11-25T12:00:00Z",
      "updated_at": "2025-11-25T12:00:00Z",
      "created_by": "migration",
      "updated_by": "migration"
    },
    {
      "id": "h100_edgar",
      "type": "h100",
      "name": "Edgar",
      "description": "Zwischen Anwesen Müller und Wiese",
      "latitude": 50.0002409,
      "longitude": 7.3561349,
      "photo": "h100_edgar.jpg",
      "created_at": "2025-11-25T12:00:00Z",
      "updated_at": "2025-11-25T12:00:00Z",
      "created_by": "migration",
      "updated_by": "migration"
    },
    {
      "id": "h100_emmel",
      "type": "h100",
      "name": "Emmel",
      "description": "Im Bürgersteig. Ganz am Anfang",
      "latitude": 49.998736,
      "longitude": 7.361741,
      "photo": "h100_stall_emmel.jpg",
      "created_at": "2025-11-25T12:00:00Z",
      "updated_at": "2025-11-25T12:00:00Z",
      "created_by": "migration",
      "updated_by": "migration"
    },
    {
      "id": "h100_faust",
      "type": "h100",
      "name": "Faust",
      "description": "Neben der Strasse",
      "latitude": 50.001104,
      "longitude": 7.36231,
      "photo": "h100_faust.jpg",
      "created_at": "2025-11-25T12:00:00Z",
      "updated_at": "2025-11-25T12:00:00Z",
      "created_by": "migration",
      "updated_by": "migration"
    },
    {
      "id": "h100_gemeindehaus",
      "type": "h100",
      "name": "Gemeindehaus",
      "description": "Mittig Abfahrt Schlachthaus",
      "latitude": 50.000378,
      "longitude": 7.357174,
      "photo": "h100_gemeindehaus.jpg",
      "created_at": "2025-11-25T12:00:00Z",
      "updated_at": "2025-11-25T12:00:00Z",
      "created_by": "migration",
      "updated_by": "migration"
    },
    {
      "id": "h100_halfmann",
      "type": "h100",
      "name": "Halfmann",
      "description": "Zwischen Tür und Garten",
      "latitude": 49.999093,
      "longitude": 7.361103,
      "photo": "h100_halfmann.jpg",
      "created_at": "2025-11-25T12:00:00Z",
      "updated_at": "2025-11-25T12:00:00Z",
      "created_by": "migration",
      "updated_by": "migration"
    },
    {
      "id": "h100_horbert1",
      "type": "h100",
      "name": "Horbert1",
      "description": "Zwischen Anwesen Horbert und Dankl",
      "latitude": 49.998294,
      "longitude": 7.357483,
      "photo": "h100_peter_horbert.jpg",
      "created_at": "2025-11-25T12:00:00Z",
      "updated_at": "2025-11-25T12:00:00Z",
      "created_by": "migration",
      "updated_by": "migration"
    },
    {
      "id": "h100_horbert2",
      "type": "h100",
      "name": "Horbert2",
      "description": "Leicht links zur Haustür versetzt",
      "latitude": 49.999004,
      "longitude": 7.35803,
      "photo": "h100_luddi.jpg",
      "created_at": "2025-11-25T12:00:00Z",
      "updated_at": "2025-11-25T12:00:00Z",
      "created_by": "migration",
      "updated_by": "migration"
    },
    {
      "id": "h100_kasper1",
      "type": "h100",
      "name": "Kasper1",
      "description": "Kurz vor der Hofeinfahrt",
      "latitude": 50.003226,
      "longitude": 7.361165,
      "photo": "h100_kaspar_alt.jpg",
      "created_at": "2025-11-25T12:00:00Z",
      "updated_at": "2025-11-25T12:00:00Z",
      "created_by": "migration",
      "updated_by": "migration"
    },
    {
      "id": "h100_kasper2",
      "type": "h100",
      "name": "Kasper2",
      "description": "Am Ende der Strasse im Rabatt.",
      "latitude": 50.003503,
      "longitude": 7.361588,
      "photo": "h100_kaspar_neu.jpg",
      "created_at": "2025-11-25T12:00:00Z",
      "updated_at": "2025-11-25T12:00:00Z",
      "created_by": "migration",
      "updated_by": "migration"
    },
    {
      "id": "h100_keetze",
      "type": "h100",
      "name": "Keetze",
      "description": "Mittig vor dem Schiebetor",
      "latitude": 49.99928,
      "longitude": 7.362047,
      "photo": "h100_keetze.jpg",
      "created_at": "2025-11-25T12:00:00Z",
      "updated_at": "2025-11-25T12:00:00Z",
      "created_by": "migration",
      "updated_by": "migration"
    },
    {
      "id": "h100_kiga",
      "type": "h100",
      "name": "Kiga",
      "description": "Vor dem Eingang des Kindergarten, in der Strasse.",
      "latitude": 49.997875,
      "longitude": 7.358552,
      "photo": "h100_kiga.jpg",
      "created_at": "2025-11-25T12:00:00Z",
      "updated_at": "2025-11-25T12:00:00Z",
      "created_by": "migration",
      "updated_by": "migration"
    },
    {
      "id": "h100_Kludenbach_aspelgasse",
      "type": "h100",
      "name": "Kludenbach Aspelgasse",
      "description": "Mittig auf der Straße",
      "latitude": 49.98728679296363,
      "longitude": 7.370332181453706,
      "photo": "h100_gemeindehaus.jpg",
      "created_at": "2025-11-25T12:00:00Z",
      "updated_at": "2025-11-25T12:00:00Z",
      "created_by": "migration",
      "updated_by": "migration"
    },
    {
      "id": "h100_Kludenbach_hauptstrasse_1",
      "type": "h100",
      "name": "Kludenbach Hauptstrasse 1",
      "description": "Mittig auf der Straße",
      "latitude": 49.986728036623354,
      "longitude": 7.366901636123658,
      "photo": "h100_gemeindehaus.jpg",
      "created_at": "2025-11-25T12:00:00Z",
      "updated_at": "2025-11-25T12:00:00Z",
      "created_by": "migration",
      "updated_by": "migration"
    },
    {
      "id": "h100_Kludenbach_hauptstrasse_2",
      "type": "h100",
      "name": "Kludenbach Hauptstrasse 2",
      "description": "Mittig auf der Straße",
      "latitude": 49.987395439276,
      "longitude": 7.368143498897553,
      "photo": "h100_gemeindehaus.jpg",
      "created_at": "2025-11-25T12:00:00Z",
      "updated_at": "2025-11-25T12:00:00Z",
      "created_by": "migration",
      "updated_by": "migration"
    },
    {
      "id": "h100_Kludenbach_hauptstrasse_3",
      "type": "h100",
      "name": "Kludenbach Hauptstrasse 3",
      "description": "Mittig auf der Straße",
      "latitude": 49.987604108489265,
      "longitude": 7.368779182434083,
      "photo": "h100_gemeindehaus.jpg",
      "created_at": "2025-11-25T12:00:00Z",
      "updated_at": "2025-11-25T12:00:00Z",
      "created_by": "migration",
      "updated_by": "migration"
    },
    {
      "id": "h100_Kludenbach_im_waeldchen_1",
      "type": "h100",
      "name": "Kludenbach Im Waeldchen 1",
      "description": "Mittig auf der Straße",
      "latitude": 49.98949588641169,
      "longitude": 7.371850311756135,
      "photo": "h100_gemeindehaus.jpg",
      "created_at": "2025-11-25T12:00:00Z",
      "updated_at": "2025-11-25T12:00:00Z",
      "created_by": "migration",
      "updated_by": "migration"
    },
    {
      "id": "h100_Kludenbach_im_waeldchen_2",
      "type": "h100",
      "name": "Kludenbach Im Waeldchen 2",
      "description": "Mittig auf der Straße",
      "latitude": 49.989206175018964,
      "longitude": 7.371372878551484,
      "photo": "h100_gemeindehaus.jpg",
      "created_at": "2025-11-25T12:00:00Z",
      "updated_at": "2025-11-25T12:00:00Z",
      "created_by": "migration",
      "updated_by": "migration"
    },
    {
      "id": "h100_Kludenbach_im_waeldchen_3",
      "type": "h100",
      "name": "Kludenbach Im Waeldchen 3",
      "description": "Mittig auf der Straße",
      "latitude": 49.989411387435766,
      "longitude": 7.370900809764863,
      "photo": "h100_gemeindehaus.jpg",
      "created_at": "2025-11-25T12:00:00Z",
      "updated_at": "2025-11-25T12:00:00Z",
      "created_by": "migration",
      "updated_by": "migration"
    },
    {
      "id": "h100_Kludenbach_metzenhausenerweg",
      "type": "h100",
      "name": "Kludenbach Metzenhausenerweg",
      "description": "Mittig auf der Straße",
      "latitude": 49.986408990740024,
      "longitude": 7.367494404315949,
      "photo": "h100_gemeindehaus.jpg",
      "created_at": "2025-11-25T12:00:00Z",
      "updated_at": "2025-11-25T12:00:00Z",
      "created_by": "migration",
      "updated_by": "migration"
    },
    {
      "id": "h100_kuhne",
      "type": "h100",
      "name": "Kuhne",
      "description": "Im Gehweg auf der Ecke",
      "latitude": 49.999731,
      "longitude": 7.358138,
      "photo": "h100_kuhne.jpg",
      "created_at": "2025-11-25T12:00:00Z",
      "updated_at": "2025-11-25T12:00:00Z",
      "created_by": "migration",
      "updated_by": "migration"
    },
    {
      "id": "h100_luugi",
      "type": "h100",
      "name": "Luugi",
      "description": "Etwa auf Höhe der Hausecke",
      "latitude": 50.002788,
      "longitude": 7.36073,
      "photo": "h100_jakobs_luugi.jpg",
      "created_at": "2025-11-25T12:00:00Z",
      "updated_at": "2025-11-25T12:00:00Z",
      "created_by": "migration",
      "updated_by": "migration"
    },
    {
      "id": "h100_moortze",
      "type": "h100",
      "name": "Moortze",
      "description": "Etwas rechts der Garage, auf der Strasse",
      "latitude": 50.00216,
      "longitude": 7.360729,
      "photo": "h100_moortze.jpg",
      "created_at": "2025-11-25T12:00:00Z",
      "updated_at": "2025-11-25T12:00:00Z",
      "created_by": "migration",
      "updated_by": "migration"
    },
    {
      "id": "h100_mueller",
      "type": "h100",
      "name": "Mueller",
      "description": "Mittig Einmündung des Feldweg",
      "latitude": 49.99863,
      "longitude": 7.356766,
      "photo": "h100_mueller.jpg",
      "created_at": "2025-11-25T12:00:00Z",
      "updated_at": "2025-11-25T12:00:00Z",
      "created_by": "migration",
      "updated_by": "migration"
    },
    {
      "id": "h100_ortsausgang",
      "type": "h100",
      "name": "Ortsausgang",
      "description": "Vor dem Verkehrsschild. Im Rabatt",
      "latitude": 50.001786,
      "longitude": 7.355343,
      "photo": "h100_ortsausgang.jpg",
      "created_at": "2025-11-25T12:00:00Z",
      "updated_at": "2025-11-25T12:00:00Z",
      "created_by": "migration",
      "updated_by": "migration"
    },
    {
      "id": "h100_otto",
      "type": "h100",
      "name": "Otto",
      "description": "Mittig vor dem Treppenhaus",
      "latitude": 49.999795,
      "longitude": 7.356725,
      "photo": "h100_otto.jpg",
      "created_at": "2025-11-25T12:00:00Z",
      "updated_at": "2025-11-25T12:00:00Z",
      "created_by": "migration",
      "updated_by": "migration"
    },
    {
      "id": "h100_vladi",
      "type": "h100",
      "name": "Vladi",
      "description": "Am Strassenrand. In der Biegung",
      "latitude": 49.998542,
      "longitude": 7.359359,
      "photo": "h100_vladi.jpg",
      "created_at": "2025-11-25T12:00:00Z",
      "updated_at": "2025-11-25T12:00:00Z",
      "created_by": "migration",
      "updated_by": "migration"
    },
    {
      "id": "h100_walges",
      "type": "h100",
      "name": "Walges",
      "description": "Fast mittig auf der Kreuzung",
      "latitude": 49.999363,
      "longitude": 7.357476,
      "photo": "h100_walges.jpg",
      "created_at": "2025-11-25T12:00:00Z",
      "updated_at": "2025-11-25T12:00:00Z",
      "created_by": "migration",
      "updated_by": "migration"
    },
    {
      "id": "h100_weirich",
      "type": "h100",
      "name": "Weirich",
      "description": "Mittig auf dem Bürgersteig",
      "latitude": 49.998352,
      "longitude": 7.362471,
      "photo": "h100_weirich.jpg",
      "created_at": "2025-11-25T12:00:00Z",
      "updated_at": "2025-11-25T12:00:00Z",
      "created_by": "migration",
      "updated_by": "migration"
    },
    {
      "id": "h125_juppi",
      "type": "h125",
      "name": "Juppi",
      "description": "Auf der Strasse",
      "latitude": 50.000866,
      "longitude": 7.36034,
      "photo": "h125_juppi.jpg",
      "created_at": "2025-11-25T12:00:00Z",
      "updated_at": "2025-11-25T12:00:00Z",
      "created_by": "migration",
      "updated_by": "migration"
    },
    {
      "id": "h125_Kludenbach_hauptstrasse_4",
      "type": "h125",
      "name": "Kludenbach Hauptstrasse 4",
      "description": "Auf der Strasse",
      "latitude": 49.9881214662703,
      "longitude": 7.369586527347566,
      "photo": "h125_schule.jpg",
      "created_at": "2025-11-25T12:00:00Z",
      "updated_at": "2025-11-25T12:00:00Z",
      "created_by": "migration",
      "updated_by": "migration"
    },
    {
      "id": "h125_Kludenbach_hauptstrasse_5",
      "type": "h125",
      "name": "Kludenbach Hauptstrasse 5",
      "description": "Auf der Strasse",
      "latitude": 49.98842153123348,
      "longitude": 7.370675504207612,
      "photo": "h125_schule.jpg",
      "created_at": "2025-11-25T12:00:00Z",
      "updated_at": "2025-11-25T12:00:00Z",
      "created_by": "migration",
      "updated_by": "migration"
    },
    {
      "id": "h125_Kludenbach_hauptstrasse_6",
      "type": "h125",
      "name": "Kludenbach Hauptstrasse 6",
      "description": "Auf der Strasse",
      "latitude": 49.98857328751352,
      "longitude": 7.3720595240592965,
      "photo": "h125_schule.jpg",
      "created_at": "2025-11-25T12:00:00Z",
      "updated_at": "2025-11-25T12:00:00Z",
      "created_by": "migration",
      "updated_by": "migration"
    },
    {
      "id": "h125_Kludenbach_hauptstrasse_7",
      "type": "h125",
      "name": "Kludenbach Hauptstrasse 7",
      "description": "Auf der Strasse",
      "latitude": 49.98869400239437,
      "longitude": 7.373912930488587,
      "photo": "h125_schule.jpg",
      "created_at": "2025-11-25T12:00:00Z",
      "updated_at": "2025-11-25T12:00:00Z",
      "created_by": "migration",
      "updated_by": "migration"
    },
    {
      "id": "h125_Kludenbach_hauptstrasse_8",
      "type": "h125",
      "name": "Kludenbach Hauptstrasse 8",
      "description": "Auf der Strasse",
      "latitude": 49.98872849230468,
      "longitude": 7.374661266803742,
      "photo": "h125_schule.jpg",
      "created_at": "2025-11-25T12:00:00Z",
      "updated_at": "2025-11-25T12:00:00Z",
      "created_by": "migration",
      "updated_by": "migration"
    },
    {
      "id": "h125_schule",
      "type": "h125",
      "name": "Schule",
      "description": "Auf der Strasse",
      "latitude": 50.000035,
      "longitude": 7.35984,
      "photo": "h125_schule.jpg",
      "created_at": "2025-11-25T12:00:00Z",
      "updated_at": "2025-11-25T12:00:00Z",
      "created_by": "migration",
      "updated_by": "migration"
    },
    {
      "id": "h150_bernhardt",
      "type": "h150",
      "name": "Bernhardt",
      "description": "An der Zaunecke",
      "latitude": 49.999286,
      "longitude": 7.360272,
      "photo": "h150_bernhardt.jpg",
      "created_at": "2025-11-25T12:00:00Z",
      "updated_at": "2025-11-25T12:00:00Z",
      "created_by": "migration",
      "updated_by": "migration"
    },
    {
      "id": "h150_jung",
      "type": "h150",
      "name": "Jung",
      "description": "Im Bürgersteig",
      "latitude": 50.0017,
      "longitude": 7.361533,
      "photo": "h150_bongarth_jung.jpg",
      "created_at": "2025-11-25T12:00:00Z",
      "updated_at": "2025-11-25T12:00:00Z",
      "created_by": "migration",
      "updated_by": "migration"
    },
    {
      "id": "h150_kreissel",
      "type": "h150",
      "name": "Kreissel",
      "description": "Im Bürgersteig. Kurz nach der Treppe.",
      "latitude": 49.999391,
      "longitude": 7.359534,
      "photo": "h150_kreissel_beckersch.jpg",
      "created_at": "2025-11-25T12:00:00Z",
      "updated_at": "2025-11-25T12:00:00Z",
      "created_by": "migration",
      "updated_by": "migration"
    },
    {
      "id": "h150_ortsschild",
      "type": "h150",
      "name": "Ortsschild",
      "description": "Neben dem Ortsschild, auf dem Grasstück",
      "latitude": 50.002593,
      "longitude": 7.363411,
      "photo": "h150_ortsschild.jpg",
      "created_at": "2025-11-25T12:00:00Z",
      "updated_at": "2025-11-25T12:00:00Z",
      "created_by": "migration",
      "updated_by": "migration"
    },
    {
      "id": "h150_staudt",
      "type": "h150",
      "name": "Staudt",
      "description": "Kurz vor dem Zaun",
      "latitude": 50.00219,
      "longitude": 7.362483,
      "photo": "h150_staudt.jpg",
      "created_at": "2025-11-25T12:00:00Z",
      "updated_at": "2025-11-25T12:00:00Z",
      "created_by": "migration",
      "updated_by": "migration"
    },
    {
      "id": "h80_liesch_faust",
      "type": "h80",
      "name": "Liesch Faust",
      "description": "Vor der ehemaligen Lagerfläche",
      "latitude": 50.001782,
      "longitude": 7.362643,
      "photo": "h80_liesch_faust.jpg",
      "created_at": "2025-11-25T12:00:00Z",
      "updated_at": "2025-11-25T12:00:00Z",
      "created_by": "migration",
      "updated_by": "migration"
    },
    {
      "id": "h80_mohr",
      "type": "h80",
      "name": "Mohr",
      "description": "Etwas unterhalb des Eingang Mohr. Auf der gegenüberliegenden Seite",
      "latitude": 49.99985,
      "longitude": 7.3612,
      "photo": "h80_liesch_faust.jpg",
      "created_at": "2025-11-25T12:00:00Z",
      "updated_at": "2025-11-25T12:00:00Z",
      "created_by": "migration",
      "updated_by": "migration"
    },
    {
      "id": "h80_zilles_marx",
      "type": "h80",
      "name": "Zilles Marx",
      "description": "An der Grenze zwischen Stall Zilles und Garage Marx",
      "latitude": 50.0005,
      "longitude": 7.36087,
      "photo": "h80_liesch_faust.jpg",
      "created_at": "2025-11-25T12:00:00Z",
      "updated_at": "2025-11-25T12:00:00Z",
      "created_by": "migration",
      "updated_by": "migration"
    },
    {
      "id": "reservoir_reservoir_zilles1",
      "type": "reservoir",
      "name": "Reservoir Zilles1",
      "description": "Ehemals Güllegrube.",
      "latitude": 50.002,
      "longitude": 7.362064,
      "photo": "wr_zilles_staudt.jpg",
      "created_at": "2025-11-25T12:00:00Z",
      "updated_at": "2025-11-25T12:00:00Z",
      "created_by": "migration",
      "updated_by": "migration"
    },
    {
      "id": "reservoir_reservoir_zilles2",
      "type": "reservoir",
      "name": "Reservoir Zilles2",
      "description": "Ehemals Güllegrube. ca. 80m³<br>Vor dem Stallgebäude<br>Nur die hintere Kammer wird genutzt",
      "latitude": 50.000603,
      "longitude": 7.360675,
      "photo": "wr_busche.jpg",
      "created_at": "2025-11-25T12:00:00Z",
      "updated_at": "2025-11-25T12:00:00Z",
      "created_by": "migration",
      "updated_by": "migration"
    },
    {
      "id": "reservoir_teich_gass",
      "type": "reservoir",
      "name": "Teich Gass",
      "description": "Löschteich ca 60-70 m³<br>Schwer zu erreichen<br>im Gebüsch versteckt",
      "latitude": 50.001993,
      "longitude": 7.35732,
      "photo": "lt_gass.jpg",
      "created_at": "2025-11-25T12:00:00Z",
      "updated_at": "2025-11-25T12:00:00Z",
      "created_by": "migration",
      "updated_by": "migration"
    },
    {
      "id": "reservoir_weiher_keim",
      "type": "reservoir",
      "name": "Weiher Keim",
      "description": "Fischweiher.<br> Darf als Wasserentnahmestelle genutzt werden.",
      "latitude": 50.004791,
      "longitude": 7.349999,
      "photo": "lt_keim.jpg",
      "created_at": "2025-11-25T12:00:00Z",
      "updated_at": "2025-11-25T12:00:00Z",
      "created_by": "migration",
      "updated_by": "migration"
    },
    {
      "id": "reservoir_weiher_marx",
      "type": "reservoir",
      "name": "Weiher Marx",
      "description": "Fischweiher.<br> Darf als Wasserentnahmestelle genutzt werden.",
      "latitude": 50.00293278321956,
      "longitude": 7.378638982772828,
      "photo": "lt_keim.jpg",
      "created_at": "2025-11-25T12:00:00Z",
      "updated_at": "2025-11-25T12:00:00Z",
      "created_by": "migration",
      "updated_by": "migration"
    }
  ]
}
