{
  "version": "1.0",
  "last_updated": "2025-11-26T15:30:00Z",
  "hydrants": [
    {
      "id": "geraetehaus",
      "type": "building",
      "lat": 50.000153,
      "lng": 7.356538,
      "title": "Gerätehaus FFW Kappel",
      "description": "Das Gerätehaus",
      "photo": "IMAG0502.jpg",
      "created_at": "2025-01-15T10:00:00Z",
      "created_by": "admin",
      "updated_at": "2025-01-15T10:00:00Z",
      "updated_by": "admin"
    },
    {
      "id": "h80_liesch_faust",
      "type": "h80",
      "lat": 50.001782,
      "lng": 7.362643,
      "title": "Grenze Anwesen Liesch/Lagerfläche Ortsgemeinde",
      "description": "Vor der ehemaligen Lagerfläche",
      "photo": "h80_liesch_faust.jpg",
      "created_at": "2025-01-15T11:00:00Z",
      "created_by": "admin",
      "updated_at": "2025-01-15T11:00:00Z",
      "updated_by": "admin"
    },
    {
      "id": "h100_faust",
      "type": "h100",
      "lat": 50.001104,
      "lng": 7.362310,
      "title": "Vor der alten Industrieanlage Faust",
      "description": "Neben der Strasse",
      "photo": "h100_faust.jpg",
      "created_at": "2025-01-15T11:15:00Z",
      "created_by": "admin",
      "updated_at": "2025-01-15T11:15:00Z",
      "updated_by": "admin"
    },
    {
      "id": "h100_brummi",
      "type": "h100",
      "lat": 50.000185,
      "lng": 7.362224,
      "title": "Zwischen altem Gemeindehaus und BrummiGrill",
      "description": "Vor der Hecke",
      "photo": "h100_brummi.jpg",
      "created_at": "2025-01-15T11:30:00Z",
      "created_by": "editor_test",
      "updated_at": "2025-01-20T14:30:00Z",
      "updated_by": "editor_test"
    },
    {
      "id": "h100_brieger",
      "type": "h100",
      "lat": 49.999399,
      "lng": 7.362787,
      "title": "Oberhalb Anwesen Brieger",
      "description": "Oberhalb des Anwesen Brieger",
      "photo": "h100_brieger.jpg",
      "created_at": "2025-01-15T12:00:00Z",
      "created_by": "admin",
      "updated_at": "2025-01-15T12:00:00Z",
      "updated_by": "admin"
    },
    {
      "id": "h125_schule",
      "type": "h125",
      "lat": 50.000035,
      "lng": 7.359840,
      "title": "Vor der ehemaligen evangelischen Schule",
      "description": "Auf der Strasse",
      "photo": "h125_schule.jpg",
      "created_at": "2025-01-16T09:00:00Z",
      "created_by": "editor_test",
      "updated_at": "2025-01-16T09:00:00Z",
      "updated_by": "editor_test"
    },
    {
      "id": "h150_bernhardt",
      "type": "h150",
      "lat": 49.999286,
      "lng": 7.360272,
      "title": "Anwesen Bernhardt",
      "description": "An der Zaunecke",
      "photo": "h150_bernhardt.jpg",
      "created_at": "2025-01-16T10:00:00Z",
      "created_by": "admin",
      "updated_at": "2025-01-16T10:00:00Z",
      "updated_by": "admin"
    },
    {
      "id": "reservoir_zilles1",
      "type": "reservoir",
      "lat": 50.002000,
      "lng": 7.362064,
      "title": "Wasservorrat Anwesen Zilles",
      "description": "Ehemals Güllegrube. Zwischen Anwesen Zilles und Staudt",
      "photo": "wr_zilles_staudt.jpg",
      "created_at": "2025-01-16T11:00:00Z",
      "created_by": "admin",
      "updated_at": "2025-01-16T11:00:00Z",
      "updated_by": "admin"
    },
    {
      "id": "teich_gass",
      "type": "reservoir",
      "lat": 50.001993,
      "lng": 7.357320,
      "title": "Löschteich Gass ca 60-70m³",
      "description": "Schwer zu erreichen. Im Gebüsch versteckt.",
      "photo": "lt_gass.jpg",
      "created_at": "2025-01-16T12:00:00Z",
      "created_by": "admin",
      "updated_at": "2025-01-16T12:00:00Z",
      "updated_by": "admin"
    },
    {
      "id": "weiher_keim",
      "type": "reservoir",
      "lat": 50.004791,
      "lng": 7.349999,
      "title": "Fischweiher Keim ca 5.500m³",
      "description": "Darf als Wasserentnahmestelle genutzt werden.",
      "photo": "lt_keim.jpg",
      "created_at": "2025-01-16T13:00:00Z",
      "created_by": "admin",
      "updated_at": "2025-01-16T13:00:00Z",
      "updated_by": "admin"
    }
  ]
}
